[
  {
    "event_id": 221803,
    "title": "I passed through Minneapolis-St. Paul International Airport (MSP) in 2026",
    "code": "MSP",
    "continent": "North America",
    "lat": 44.88197,
    "lon": -93.22178,
    "city": "Minneapolis",
    "country": "US",
    "name": "Minneapolis-St Paul International/Wold-Chamberlain Airport",
    "image_url": "/img/poaps/msp.png",
    "claims": 7
  },
  {
    "event_id": 214919,
    "title": "I passed through Congonhas Airport (CGH) in 2026",
    "code": "CGH",
    "continent": "South America",
    "lat": -23.62611,
    "lon": -46.65639,
    "city": "Sao Paulo",
    "country": "BR",
    "name": "Congonhas Airport",
    "image_url": "/img/poaps/cgh.png",
    "claims": 2
  },
  {
    "event_id": 214885,
    "title": "I passed through Incheon International Airport (ICN) in 2026",
    "code": "ICN",
    "continent": "Asia",
    "lat": 37.4691,
    "lon": 126.451,
    "city": "Seoul",
    "country": "KR",
    "name": "Incheon International Airport",
    "image_url": "/img/poaps/icn.png",
    "claims": 1
  },
  {
    "event_id": 214932,
    "title": "I passed through Dallas Fortworth International Airport (DFW) in 2026",
    "code": "DFW",
    "continent": "North America",
    "lat": 32.89723,
    "lon": -97.03769,
    "city": "Dallas-Fort Worth",
    "country": "US",
    "name": "Dallas-Fort Worth International Airport",
    "image_url": "/img/poaps/dfw.png",
    "claims": 5
  },
  {
    "event_id": 214920,
    "title": "I passed through Sao Paulo-Guarulhos International Airport (GRU) in 2026",
    "code": "GRU",
    "continent": "South America",
    "lat": -23.43556,
    "lon": -46.47306,
    "city": "Sao Paulo",
    "country": "BR",
    "name": "Guarulhos - Governador Andre Franco Montoro International Airport",
    "image_url": "/img/poaps/gru.png",
    "claims": 2
  },
  {
    "event_id": 214902,
    "title": "I passed through Warsaw Chopin Airport (WAW) in 2026",
    "code": "WAW",
    "continent": "Europe",
    "lat": 52.1657,
    "lon": 20.9671,
    "city": "Warsaw",
    "country": "PL",
    "name": "Warsaw Chopin Airport",
    "image_url": "/img/poaps/waw.png",
    "claims": 2
  },
  {
    "event_id": 222336,
    "title": "I passed through Seattle-Tacoma International Airport (SEA) in 2026",
    "code": "SEA",
    "continent": "North America",
    "lat": 47.44989,
    "lon": -122.31178,
    "city": "Seattle",
    "country": "US",
    "name": "Seattle-Tacoma International Airport",
    "image_url": "/img/poaps/sea.png",
    "claims": 0
  },
  {
    "event_id": 214937,
    "title": "I passed through Newark Liberty International Airport (EWR) in 2026",
    "code": "EWR",
    "continent": "North America",
    "lat": 40.69248,
    "lon": -74.16869,
    "city": "Newark",
    "country": "US",
    "name": "Newark Liberty International Airport",
    "image_url": "/img/poaps/ewr.png",
    "claims": 4
  },
  {
    "event_id": 214914,
    "title": "I passed through El Dorado International Airport (BOG) in 2026",
    "code": "BOG",
    "continent": "South America",
    "lat": 4.70159,
    "lon": -74.1469,
    "city": "Bogota",
    "country": "CO",
    "name": "El Dorado International Airport",
    "image_url": "/img/poaps/bog.png",
    "claims": 6
  },
  {
    "event_id": 216408,
    "title": "I passed through Ljubljana Jo\u017ee Pu\u010dnik Airport (LJU) in 2026",
    "code": "LJU",
    "continent": "Europe",
    "lat": 46.2237,
    "lon": 14.4576,
    "city": "Ljubljana",
    "country": "SI",
    "name": "Ljubljana Joze Pucnik Airport",
    "image_url": "/img/poaps/lju.png",
    "claims": 0
  },
  {
    "event_id": 214893,
    "title": "I passed through Zurich Airport (ZRH) in 2026",
    "code": "ZRH",
    "continent": "Europe",
    "lat": 47.4647,
    "lon": 8.54917,
    "city": "Zurich",
    "country": "CH",
    "name": "Zurich Airport",
    "image_url": "/img/poaps/zrh.png",
    "claims": 4
  },
  {
    "event_id": 214921,
    "title": "I passed through Aeroparque Jorge Newbery (AEP) in 2026",
    "code": "AEP",
    "continent": "South America",
    "lat": -34.5592,
    "lon": -58.4156,
    "city": "Buenos Aires",
    "country": "AR",
    "name": "Jorge Newbery Airpark",
    "image_url": "/img/poaps/aep.png",
    "claims": 9
  },
  {
    "event_id": 214935,
    "title": "I passed through San Diego International Airport (SAN) in 2026",
    "code": "SAN",
    "continent": "North America",
    "lat": 32.73356,
    "lon": -117.18966,
    "city": "San Diego",
    "country": "US",
    "name": "San Diego International Airport",
    "image_url": "/img/poaps/san.png",
    "claims": 2
  },
  {
    "event_id": 214901,
    "title": "I passed through Leonardo da Vinci-Fiumicino Airport (FCO) in 2026",
    "code": "FCO",
    "continent": "Europe",
    "lat": 41.8045,
    "lon": 12.2508,
    "city": "Rome",
    "country": "IT",
    "name": "Leonardo Da Vinci (Fiumicino) International Airport",
    "image_url": "/img/poaps/fco.png",
    "claims": 2
  },
  {
    "event_id": 214881,
    "title": "I passed through Shanghai Hongqiao International Airport (SHA) in 2026",
    "code": "SHA",
    "continent": "Asia",
    "lat": 31.1979,
    "lon": 121.336,
    "city": "Shanghai",
    "country": "CN",
    "name": "Shanghai Hongqiao International Airport",
    "image_url": "/img/poaps/sha.png",
    "claims": 0
  },
  {
    "event_id": 214884,
    "title": "I passed through Haneda Airport (HND) in 2026",
    "code": "HND",
    "continent": "Asia",
    "lat": 35.5523,
    "lon": 139.78,
    "city": "Tokyo",
    "country": "JP",
    "name": "Tokyo International Airport",
    "image_url": "/img/poaps/hnd.png",
    "claims": 1
  },
  {
    "event_id": 214883,
    "title": "I passed through Narita International Airport (NRT) in 2026",
    "code": "NRT",
    "continent": "Asia",
    "lat": 35.7647,
    "lon": 140.386,
    "city": "Tokyo",
    "country": "JP",
    "name": "Narita International Airport",
    "image_url": "/img/poaps/nrt.png",
    "claims": 4
  },
  {
    "event_id": 214908,
    "title": "I passed through Charles de Gaulle Airport (CDG) in 2026",
    "code": "CDG",
    "continent": "Europe",
    "lat": 49.0128,
    "lon": 2.55,
    "city": "Paris",
    "country": "FR",
    "name": "Charles de Gaulle International Airport",
    "image_url": "/img/poaps/cdg.png",
    "claims": 3
  },
  {
    "event_id": 221806,
    "title": "I passed through LaGuardia Airport (LGA) in 2026",
    "code": "LGA",
    "continent": "North America",
    "lat": 40.77725,
    "lon": -73.87261,
    "city": "New York",
    "country": "US",
    "name": "Laguardia Airport",
    "image_url": "/img/poaps/lga.png",
    "claims": 2
  },
  {
    "event_id": 216410,
    "title": "I passed through Klagenfurt Airport (KLU) in 2026",
    "code": "KLU",
    "continent": "Europe",
    "lat": 46.6425,
    "lon": 14.3377,
    "city": "Klagenfurt am Worthersee",
    "country": "AT",
    "name": "Klagenfurt Airport",
    "image_url": "/img/poaps/klu.png",
    "claims": 0
  },
  {
    "event_id": 214898,
    "title": "I passed through Henri Coanda International Airport (OTP) in 2026",
    "code": "OTP",
    "continent": "Europe",
    "lat": 44.5722,
    "lon": 26.1022,
    "city": "Bucharest",
    "country": "RO",
    "name": "Henri Coanda International Airport",
    "image_url": "/img/poaps/otp.png",
    "claims": 0
  },
  {
    "event_id": 214886,
    "title": "I passed through Kempegowda International Airport (BLR) in 2026",
    "code": "BLR",
    "continent": "Asia",
    "lat": 13.1979,
    "lon": 77.7063,
    "city": "Bangalore",
    "country": "IN",
    "name": "Bengaluru International Airport",
    "image_url": "/img/poaps/blr.png",
    "claims": 1
  },
  {
    "event_id": 214924,
    "title": "I passed through Cancun International Airport (CUN) in 2026",
    "code": "CUN",
    "continent": "North America",
    "lat": 21.0365,
    "lon": -86.8771,
    "city": "Cancun",
    "country": "MX",
    "name": "Cancun International Airport",
    "image_url": "/img/poaps/cun.png",
    "claims": 5
  },
  {
    "event_id": 214934,
    "title": "I passed through Los Angeles International Airport (LAX) in 2026",
    "code": "LAX",
    "continent": "North America",
    "lat": 33.9425,
    "lon": -118.40805,
    "city": "Los Angeles",
    "country": "US",
    "name": "Los Angeles International Airport",
    "image_url": "/img/poaps/lax.png",
    "claims": 1
  },
  {
    "event_id": 218112,
    "title": "I passed through Auckland Airport (AKL) in 2026",
    "code": "AKL",
    "continent": "Oceania",
    "lat": -37.0081,
    "lon": 174.79201,
    "city": "Auckland",
    "country": "NZ",
    "name": "Auckland International Airport",
    "image_url": "/img/poaps/akl.png",
    "claims": 1
  },
  {
    "event_id": 216414,
    "title": "I passed through Brisbane Airport (BNE) in 2026",
    "code": "BNE",
    "continent": "Oceania",
    "lat": -27.3842,
    "lon": 153.117,
    "city": "Brisbane",
    "country": "AU",
    "name": "Brisbane International Airport",
    "image_url": "/img/poaps/bne.png",
    "claims": 0
  },
  {
    "event_id": 216407,
    "title": "I passed through Geneva International Airport (GVA) in 2026",
    "code": "GVA",
    "continent": "Europe",
    "lat": 46.2381,
    "lon": 6.10895,
    "city": "Geneva",
    "country": "CH",
    "name": "Geneva Cointrin International Airport",
    "image_url": "/img/poaps/gva.png",
    "claims": 0
  },
  {
    "event_id": 214877,
    "title": "I passed through Ninoy Aquino International Airport (MNL) in 2026",
    "code": "MNL",
    "continent": "Asia",
    "lat": 14.5086,
    "lon": 121.02,
    "city": "Manila",
    "country": "PH",
    "name": "Ninoy Aquino International Airport",
    "image_url": "/img/poaps/mnl.png",
    "claims": 5
  },
  {
    "event_id": 214882,
    "title": "I passed through Shanghai Pudong International Airport (PVG) in 2026",
    "code": "PVG",
    "continent": "Asia",
    "lat": 31.1434,
    "lon": 121.805,
    "city": "Shanghai",
    "country": "CN",
    "name": "Shanghai Pudong International Airport",
    "image_url": "/img/poaps/pvg.png",
    "claims": 0
  },
  {
    "event_id": 214940,
    "title": "I passed through Harry Reid International Airport (LAS) in 2026",
    "code": "LAS",
    "continent": "North America",
    "lat": 36.08004,
    "lon": -115.15223,
    "city": "Las Vegas",
    "country": "US",
    "name": "Harry Reid International Airport",
    "image_url": "/img/poaps/las.png",
    "claims": 0
  },
  {
    "event_id": 216411,
    "title": "I passed through Austin-Bergstorm International Airport (AUS) in 2026",
    "code": "AUS",
    "continent": "North America",
    "lat": 30.19453,
    "lon": -97.66988,
    "city": "Austin",
    "country": "US",
    "name": "Austin-Bergstrom International Airport",
    "image_url": "/img/poaps/aus.png",
    "claims": 3
  },
  {
    "event_id": 218238,
    "title": "I passed through Kansai International Airport (KIX) in 2026",
    "code": "KIX",
    "continent": "Asia",
    "lat": 34.4273,
    "lon": 135.244,
    "city": "Osaka",
    "country": "JP",
    "name": "Kansai International Airport",
    "image_url": "/img/poaps/kix.png",
    "claims": 0
  },
  {
    "event_id": 214939,
    "title": "I passed through Washington Dulles International (IAD) in 2026",
    "code": "IAD",
    "continent": "North America",
    "lat": 38.9,
    "lon": -77.5,
    "city": "Washington",
    "country": "US",
    "name": "Washington Dulles International Airport",
    "image_url": "/img/poaps/iad.png",
    "claims": 2
  },
  {
    "event_id": 216406,
    "title": "I passed through Antalya Airport (AYT) in 2026",
    "code": "AYT",
    "continent": "Europe",
    "lat": 36.8987,
    "lon": 30.8005,
    "city": "Antalya",
    "country": "TR",
    "name": "Antalya International Airport",
    "image_url": "/img/poaps/ayt.png",
    "claims": 0
  },
  {
    "event_id": 218241,
    "title": "I passed through Kyiv Boryspil Airport (KBP) in 2026",
    "code": "KBP",
    "continent": "Europe",
    "lat": 50.345,
    "lon": 30.8947,
    "city": "Kyiv",
    "country": "UA",
    "name": "Boryspil International Airport",
    "image_url": "/img/poaps/kbp.png",
    "claims": 0
  },
  {
    "event_id": 222420,
    "title": "I passed through Boston Logan International Airport (BOS) in 2026",
    "code": "BOS",
    "continent": "North America",
    "lat": 42.36294,
    "lon": -71.00639,
    "city": "Boston",
    "country": "US",
    "name": "General Edward Lawrence Logan International Airport",
    "image_url": "/img/poaps/bos.png",
    "claims": 2
  },
  {
    "event_id": 214891,
    "title": "I passed through Adolfo Suarez Madrid-Barajas Airport (MAD) in 2026",
    "code": "MAD",
    "continent": "Europe",
    "lat": 40.4936,
    "lon": -3.56676,
    "city": "Madrid",
    "country": "ES",
    "name": "Madrid Barajas International Airport",
    "image_url": "/img/poaps/mad.png",
    "claims": 2
  },
  {
    "event_id": 214880,
    "title": "I passed through Hong Kong International Airport (HKG) in 2026",
    "code": "HKG",
    "continent": "Asia",
    "lat": 22.3089,
    "lon": 113.915,
    "city": "Hong Kong",
    "country": "HK",
    "name": "Chek Lap Kok International Airport",
    "image_url": "/img/poaps/hkg.png",
    "claims": 5
  },
  {
    "event_id": 214931,
    "title": "I passed through George Bush Intercontinental Airport (IAH) in 2026",
    "code": "IAH",
    "continent": "North America",
    "lat": 29.98444,
    "lon": -95.34144,
    "city": "Houston",
    "country": "US",
    "name": "George Bush Intcntl/Houston Airport",
    "image_url": "/img/poaps/iah.png",
    "claims": 2
  },
  {
    "event_id": 214870,
    "title": "I passed through Addis Ababa Bole International Airport (ADD) in 2026",
    "code": "ADD",
    "continent": "Africa",
    "lat": 8.97789,
    "lon": 38.7993,
    "city": "Addis Ababa",
    "country": "ET",
    "name": "Bole International Airport",
    "image_url": "/img/poaps/add.png",
    "claims": 1
  },
  {
    "event_id": 214874,
    "title": "I passed through Kotoka International Airport (ACC) in 2026",
    "code": "ACC",
    "continent": "Africa",
    "lat": 5.60519,
    "lon": -0.16679,
    "city": "Accra",
    "country": "GH",
    "name": "Kotoka International Airport",
    "image_url": "/img/poaps/acc.png",
    "claims": 0
  },
  {
    "event_id": 221804,
    "title": "I passed through Arturo Merino Ben\u00edtez International Airport (SCL) in 2026",
    "code": "SCL",
    "continent": "South America",
    "lat": -33.393,
    "lon": -70.7858,
    "city": "Santiago",
    "country": "CL",
    "name": "Comodoro Arturo Merino Benitez International Airport",
    "image_url": "/img/poaps/scl.png",
    "claims": 2
  },
  {
    "event_id": 218236,
    "title": "I passed through Tan Son Nhat International Airport (SGN) in 2026",
    "code": "SGN",
    "continent": "Asia",
    "lat": 10.8188,
    "lon": 106.652,
    "city": "Ho Chi Minh City",
    "country": "VN",
    "name": "Tan Son Nhat International Airport",
    "image_url": "/img/poaps/sgn.png",
    "claims": 1
  },
  {
    "event_id": 214873,
    "title": "I passed through Cape Town International Airport (CPT) in 2026",
    "code": "CPT",
    "continent": "Africa",
    "lat": -33.9648,
    "lon": 18.6017,
    "city": "Cape Town",
    "country": "ZA",
    "name": "Cape Town International Airport",
    "image_url": "/img/poaps/cpt.png",
    "claims": 0
  },
  {
    "event_id": 214910,
    "title": "I passed through Tocumen International Airport, in Panama City, Panama (PTY) in 2026",
    "code": "PTY",
    "continent": "North America",
    "lat": 9.07136,
    "lon": -79.3835,
    "city": "Tocumen",
    "country": "PA",
    "name": "Tocumen International Airport",
    "image_url": "/img/poaps/pty.png",
    "claims": 4
  },
  {
    "event_id": 214890,
    "title": "I passed through Istanbul Airport (IST) in 2026",
    "code": "IST",
    "continent": "Europe",
    "lat": 41.27533,
    "lon": 28.752,
    "city": "Istanbul",
    "country": "TR",
    "name": "Istanbul Airport",
    "image_url": "/img/poaps/ist.png",
    "claims": 3
  },
  {
    "event_id": 214900,
    "title": "I passed through Humberto Delgado Airport (LIS) in 2026",
    "code": "LIS",
    "continent": "Europe",
    "lat": 38.7813,
    "lon": -9.13592,
    "city": "Lisbon",
    "country": "PT",
    "name": "Lisbon Portela Airport",
    "image_url": "/img/poaps/lis.png",
    "claims": 3
  },
  {
    "event_id": 214895,
    "title": "I passed through M. R. Stefanik Airport (BTS) in 2026",
    "code": "BTS",
    "continent": "Europe",
    "lat": 48.1702,
    "lon": 17.2127,
    "city": "Bratislava",
    "country": "SK",
    "name": "M. R. Stefanik Airport",
    "image_url": "/img/poaps/bts.png",
    "claims": 0
  },
  {
    "event_id": 214907,
    "title": "I passed through Nice Cote d'Azur Airport (NCE) in 2026",
    "code": "NCE",
    "continent": "Europe",
    "lat": 43.6584,
    "lon": 7.21587,
    "city": "Nice",
    "country": "FR",
    "name": "Nice-Cote d'Azur Airport",
    "image_url": "/img/poaps/nce.png",
    "claims": 15
  },
  {
    "event_id": 214876,
    "title": "I passed through Taiwan Taoyuan International Airport (TPE) in 2026",
    "code": "TPE",
    "continent": "Asia",
    "lat": 25.0777,
    "lon": 121.233,
    "city": "Taipei",
    "country": "TW",
    "name": "Taiwan Taoyuan International Airport",
    "image_url": "/img/poaps/tpe.png",
    "claims": 4
  },
  {
    "event_id": 218109,
    "title": "I passed through Thessaloniki Airport \"Makedonia\" (SKG) in 2026",
    "code": "SKG",
    "continent": "Europe",
    "lat": 40.5197,
    "lon": 22.9709,
    "city": "Thessaloniki",
    "country": "GR",
    "name": "Thessaloniki Macedonia International Airport",
    "image_url": "/img/poaps/skg.png",
    "claims": 0
  },
  {
    "event_id": 214906,
    "title": "I passed through Frankfurt Airport (FRA) in 2026",
    "code": "FRA",
    "continent": "Europe",
    "lat": 50.0264,
    "lon": 8.54313,
    "city": "Frankfurt am Main",
    "country": "DE",
    "name": "Frankfurt am Main International Airport",
    "image_url": "/img/poaps/fra.png",
    "claims": 8
  },
  {
    "event_id": 214928,
    "title": "I passed through Toronto Pearson International Airport (YYZ) in 2026",
    "code": "YYZ",
    "continent": "North America",
    "lat": 43.6772,
    "lon": -79.6306,
    "city": "Mississauga",
    "country": "CA",
    "name": "Toronto Pearson International Airport",
    "image_url": "/img/poaps/yyz.png",
    "claims": 4
  },
  {
    "event_id": 221805,
    "title": "I passed through Kuala Lumpur International Airport (KUL) in 2026",
    "code": "KUL",
    "continent": "Asia",
    "lat": 2.74558,
    "lon": 101.71,
    "city": "Kuala Lumpur",
    "country": "MY",
    "name": "Kuala Lumpur International Airport",
    "image_url": "/img/poaps/kul.png",
    "claims": 1
  },
  {
    "event_id": 218243,
    "title": "I passed through Manas International Airport, Bishkek (BSZ) in 2026",
    "code": "BSZ",
    "continent": "Asia",
    "lat": 43.0613,
    "lon": 74.4776,
    "city": "Bishkek",
    "country": "KG",
    "name": "Manas International Airport",
    "image_url": "/img/poaps/bsz.png",
    "claims": 0
  },
  {
    "event_id": 222334,
    "title": "I passed through Oaxaca International Airport (OAX) in 2026",
    "code": "OAX",
    "continent": "North America",
    "lat": 16.9999,
    "lon": -96.7266,
    "city": "Oaxaca",
    "country": "MX",
    "name": "Xoxocotlan International Airport",
    "image_url": "/img/poaps/oax.png",
    "claims": 0
  },
  {
    "event_id": 214871,
    "title": "I passed through O. R. Tambo International Airport (JNB) in 2026",
    "code": "JNB",
    "continent": "Africa",
    "lat": -26.13367,
    "lon": 28.24233,
    "city": "Johannesburg",
    "country": "ZA",
    "name": "O. R. Tambo International Airport",
    "image_url": "/img/poaps/jnb.png",
    "claims": 0
  },
  {
    "event_id": 214899,
    "title": "I passed through London Heathrow Airport (LHR) in 2026",
    "code": "LHR",
    "continent": "Europe",
    "lat": 51.4706,
    "lon": -0.46194,
    "city": "London",
    "country": "GB",
    "name": "London Heathrow Airport",
    "image_url": "/img/poaps/lhr.png",
    "claims": 4
  },
  {
    "event_id": 214872,
    "title": "I passed through Murtala Muhammed International Airport (LOS) in 2026",
    "code": "LOS",
    "continent": "Africa",
    "lat": 6.57737,
    "lon": 3.32116,
    "city": "Lagos",
    "country": "NG",
    "name": "Murtala Muhammed International Airport",
    "image_url": "/img/poaps/los.png",
    "claims": 0
  },
  {
    "event_id": 214894,
    "title": "I passed through Sofia Airport (SOF) in 2026",
    "code": "SOF",
    "continent": "Europe",
    "lat": 42.69669,
    "lon": 23.41144,
    "city": "Sofia",
    "country": "BG",
    "name": "Sofia Airport",
    "image_url": "/img/poaps/sof.png",
    "claims": 1
  },
  {
    "event_id": 214887,
    "title": "I passed through Chhatrapati Shivaji Maharaj International Airport (BOM) in 2026",
    "code": "BOM",
    "continent": "Asia",
    "lat": 19.0887,
    "lon": 72.8679,
    "city": "Mumbai",
    "country": "IN",
    "name": "Chhatrapati Shivaji International Airport",
    "image_url": "/img/poaps/bom.png",
    "claims": 2
  },
  {
    "event_id": 214926,
    "title": "I passed through Vancouver International Airport (YVR) in 2026",
    "code": "YVR",
    "continent": "North America",
    "lat": 49.1939,
    "lon": -123.184,
    "city": "Richmond",
    "country": "CA",
    "name": "Vancouver International Airport",
    "image_url": "/img/poaps/yvr.png",
    "claims": 2
  },
  {
    "event_id": 214938,
    "title": "I passed through John F. Kennedy International Airport (JFK) in 2026",
    "code": "JFK",
    "continent": "North America",
    "lat": 40.63993,
    "lon": -73.77869,
    "city": "New York",
    "country": "US",
    "name": "John F Kennedy International Airport",
    "image_url": "/img/poaps/jfk.png",
    "claims": 5
  },
  {
    "event_id": 214904,
    "title": "I passed through Belgrade Nikola Tesla Airport (BEG) in 2026",
    "code": "BEG",
    "continent": "Europe",
    "lat": 44.8184,
    "lon": 20.3091,
    "city": "Belgrad",
    "country": "RS",
    "name": "Belgrade Nikola Tesla Airport",
    "image_url": "/img/poaps/beg.png",
    "claims": 1
  },
  {
    "event_id": 216409,
    "title": "I passed through Vienna International Airport (VIE) in 2026",
    "code": "VIE",
    "continent": "Europe",
    "lat": 48.1103,
    "lon": 16.5697,
    "city": "Vienna",
    "country": "AT",
    "name": "Vienna International Airport",
    "image_url": "/img/poaps/vie.png",
    "claims": 4
  },
  {
    "event_id": 214927,
    "title": "I passed through Montreal-Trudeau International Airport (YUL) in 2026",
    "code": "YUL",
    "continent": "North America",
    "lat": 45.4706,
    "lon": -73.7408,
    "city": "Dorval",
    "country": "CA",
    "name": "Montr\u00e9al-Pierre Elliott Trudeau International Airport",
    "image_url": "/img/poaps/yul.png",
    "claims": 1
  },
  {
    "event_id": 214905,
    "title": "I passed through Berlin Brandenburg Airport (BER) in 2026",
    "code": "BER",
    "continent": "Europe",
    "lat": 52.36217,
    "lon": 13.50067,
    "city": "Berlin",
    "country": "DE",
    "name": "Berlin Brandenburg Airport",
    "image_url": "/img/poaps/ber.png",
    "claims": 1
  },
  {
    "event_id": 214875,
    "title": "I passed through Jomo Kenyatta International Airport (NBO) in 2026",
    "code": "NBO",
    "continent": "Africa",
    "lat": -1.31924,
    "lon": 36.9278,
    "city": "Nairobi",
    "country": "KE",
    "name": "Jomo Kenyatta International Airport",
    "image_url": "/img/poaps/nbo.png",
    "claims": 0
  },
  {
    "event_id": 216415,
    "title": "I passed through Cologne Bonn Airport (CGN) in 2026",
    "code": "CGN",
    "continent": "Europe",
    "lat": 50.8659,
    "lon": 7.14274,
    "city": "Cologne",
    "country": "DE",
    "name": "Cologne Bonn Airport",
    "image_url": "/img/poaps/cgn.png",
    "claims": 0
  },
  {
    "event_id": 214888,
    "title": "I passed through Indira Gandhi International Airport (DEL) in 2026",
    "code": "DEL",
    "continent": "Asia",
    "lat": 28.5665,
    "lon": 77.1031,
    "city": "New Delhi",
    "country": "IN",
    "name": "Indira Gandhi International Airport",
    "image_url": "/img/poaps/del.png",
    "claims": 0
  },
  {
    "event_id": 214922,
    "title": "I passed through Ezeiza International Airport (EZE) in 2026",
    "code": "EZE",
    "continent": "South America",
    "lat": -34.8222,
    "lon": -58.5358,
    "city": "Ezeiza",
    "country": "AR",
    "name": "Ministro Pistarini International Airport",
    "image_url": "/img/poaps/eze.png",
    "claims": 15
  },
  {
    "event_id": 214892,
    "title": "I passed through Barcelona-El Prat Airport (BCN) in 2026",
    "code": "BCN",
    "continent": "Europe",
    "lat": 41.2971,
    "lon": 2.07846,
    "city": "Barcelona",
    "country": "ES",
    "name": "Barcelona International Airport",
    "image_url": "/img/poaps/bcn.png",
    "claims": 8
  },
  {
    "event_id": 218110,
    "title": "I passed through Tbilisi International Airport (TBS) in 2026",
    "code": "TBS",
    "continent": "Europe",
    "lat": 41.6692,
    "lon": 44.9547,
    "city": "Tbilisi",
    "country": "GE",
    "name": "Tbilisi International Airport",
    "image_url": "/img/poaps/tbs.png",
    "claims": 2
  },
  {
    "event_id": 214929,
    "title": "I passed through Hartsfield-Jackson Atlanta International Airport (ATL) in 2026",
    "code": "ATL",
    "continent": "North America",
    "lat": 33.6367,
    "lon": -84.42786,
    "city": "Atlanta",
    "country": "US",
    "name": "Hartsfield - Jackson Atlanta International Airport",
    "image_url": "/img/poaps/atl.png",
    "claims": 2
  },
  {
    "event_id": 214909,
    "title": "I passed through Jorge Chavez International Airport (LIM) in 2026",
    "code": "LIM",
    "continent": "South America",
    "lat": -12.0219,
    "lon": -77.1143,
    "city": "Lima",
    "country": "PE",
    "name": "Jorge Chavez International Airport",
    "image_url": "/img/poaps/lim.png",
    "claims": 2
  },
  {
    "event_id": 216417,
    "title": "I passed through Navi Mumbai International Airport (NMI) in 2026",
    "code": "NMI",
    "continent": "Asia",
    "lat": 18.594,
    "lon": 73.0413,
    "city": "Navi Mumbai",
    "country": "IN",
    "name": "Navi Mumbai International Airport",
    "image_url": "/img/poaps/nmi.png",
    "claims": 1
  },
  {
    "event_id": 214933,
    "title": "I passed through San Francisco International Airport (SFO) in 2026",
    "code": "SFO",
    "continent": "North America",
    "lat": 37.61881,
    "lon": -122.37542,
    "city": "San Francisco",
    "country": "US",
    "name": "San Francisco International Airport",
    "image_url": "/img/poaps/sfo.png",
    "claims": 5
  },
  {
    "event_id": 214897,
    "title": "I passed through Cluj Avram Iancu International Airport (CLJ) in 2026",
    "code": "CLJ",
    "continent": "Europe",
    "lat": 46.7852,
    "lon": 23.6862,
    "city": "Cluj-Napoca",
    "country": "RO",
    "name": "Cluj-Napoca International Airport",
    "image_url": "/img/poaps/clj.png",
    "claims": 1
  },
  {
    "event_id": 214925,
    "title": "I passed through Mexico City International Airport (MEX) in 2026",
    "code": "MEX",
    "continent": "North America",
    "lat": 19.4363,
    "lon": -99.0721,
    "city": "Mexico City",
    "country": "MX",
    "name": "Licenciado Benito Juarez International Airport",
    "image_url": "/img/poaps/mex.png",
    "claims": 3
  },
  {
    "event_id": 216416,
    "title": "I passed through V\u00e1clav Havel Airport (PRG) in 2026",
    "code": "PRG",
    "continent": "Europe",
    "lat": 50.1008,
    "lon": 14.26,
    "city": "Prague",
    "country": "CZ",
    "name": "V\u00e1clav Havel Airport",
    "image_url": "/img/poaps/prg.png",
    "claims": 3
  },
  {
    "event_id": 216424,
    "title": "I passed through Ben Gurion International Airport (TLV) in 2026",
    "code": "TLV",
    "continent": "Asia",
    "lat": 32.0114,
    "lon": 34.8867,
    "city": "Tel Aviv",
    "country": "IL",
    "name": "Ben Gurion International Airport",
    "image_url": "/img/poaps/tlv.png",
    "claims": 0
  },
  {
    "event_id": 214878,
    "title": "I passed through Sydney Kingsford Airport (SYD) in 2026",
    "code": "SYD",
    "continent": "Oceania",
    "lat": -33.9461,
    "lon": 151.177,
    "city": "Sydney",
    "country": "AU",
    "name": "Sydney Kingsford Smith International Airport",
    "image_url": "/img/poaps/syd.png",
    "claims": 1
  },
  {
    "event_id": 218114,
    "title": "I passed through Athens International Airport Eleftherios Venizelos (ATH) in 2026",
    "code": "ATH",
    "continent": "Europe",
    "lat": 37.9364,
    "lon": 23.9445,
    "city": "Athens",
    "country": "GR",
    "name": "Eleftherios Venizelos International Airport",
    "image_url": "/img/poaps/ath.png",
    "claims": 1
  },
  {
    "event_id": 214923,
    "title": "I passed through General Mariano Escobedo International Airport (MTY) in 2026",
    "code": "MTY",
    "continent": "North America",
    "lat": 25.7785,
    "lon": -100.107,
    "city": "Monterrey",
    "country": "MX",
    "name": "General Mariano Escobedo International Airport",
    "image_url": "/img/poaps/mty.png",
    "claims": 1
  },
  {
    "event_id": 222333,
    "title": "I passed through Puerto Escondido International Airport (PXM) in 2026",
    "code": "PXM",
    "continent": "North America",
    "lat": 15.8769,
    "lon": -97.0891,
    "city": "Puerto Escondido",
    "country": "MX",
    "name": "Puerto Escondido International Airport",
    "image_url": "/img/poaps/pxm.png",
    "claims": 0
  },
  {
    "event_id": 216423,
    "title": "I passed through Suvarnabhumi Airport (BKK) in 2026",
    "code": "BKK",
    "continent": "Asia",
    "lat": 13.6811,
    "lon": 100.747,
    "city": "Bangkok",
    "country": "TH",
    "name": "Suvarnabhumi Airport",
    "image_url": "/img/poaps/bkk.png",
    "claims": 3
  },
  {
    "event_id": 216418,
    "title": "I passed through El Alto International Airport (LPB) in 2026",
    "code": "LPB",
    "continent": "South America",
    "lat": -16.5133,
    "lon": -68.1923,
    "city": "La Paz / El Alto",
    "country": "BO",
    "name": "El Alto International Airport",
    "image_url": "/img/poaps/lpb.png",
    "claims": 0
  },
  {
    "event_id": 216420,
    "title": "I passed through Memphis International Airport (MEM) in 2026",
    "code": "MEM",
    "continent": "North America",
    "lat": 35.04241,
    "lon": -89.97668,
    "city": "Memphis",
    "country": "US",
    "name": "Memphis International Airport",
    "image_url": "/img/poaps/mem.png",
    "claims": 0
  },
  {
    "event_id": 214930,
    "title": "I passed through Chicago O'Hare International Airport (ORD) in 2026",
    "code": "ORD",
    "continent": "North America",
    "lat": 41.97694,
    "lon": -87.90815,
    "city": "Chicago",
    "country": "US",
    "name": "Chicago O'Hare International Airport",
    "image_url": "/img/poaps/ord.png",
    "claims": 8
  },
  {
    "event_id": 216413,
    "title": "I passed through Phoenix Sky Harbor International Airport (PHX) in 2026",
    "code": "PHX",
    "continent": "North America",
    "lat": 33.43428,
    "lon": -112.01158,
    "city": "Phoenix",
    "country": "US",
    "name": "Phoenix Sky Harbor International Airport",
    "image_url": "/img/poaps/phx.png",
    "claims": 0
  },
  {
    "event_id": 216422,
    "title": "I passed through Cadriff Airport (CWL) in 2026",
    "code": "CWL",
    "continent": "Europe",
    "lat": 51.3967,
    "lon": -3.34333,
    "city": "Cardiff",
    "country": "GB",
    "name": "Cardiff International Airport",
    "image_url": "/img/poaps/cwl.png",
    "claims": 0
  },
  {
    "event_id": 218113,
    "title": "I passed through Christchurch Airport (CHC) in 2026",
    "code": "CHC",
    "continent": "Oceania",
    "lat": -43.4894,
    "lon": 172.532,
    "city": "Christchurch",
    "country": "NZ",
    "name": "Christchurch International Airport",
    "image_url": "/img/poaps/chc.png",
    "claims": 0
  },
  {
    "event_id": 214903,
    "title": "I passed through Amsterdam Airport Schiphol (AMS) in 2026",
    "code": "AMS",
    "continent": "Europe",
    "lat": 52.3086,
    "lon": 4.76389,
    "city": "Amsterdam",
    "country": "NL",
    "name": "Amsterdam Airport Schiphol",
    "image_url": "/img/poaps/ams.png",
    "claims": 6
  },
  {
    "event_id": 214889,
    "title": "I passed through Dubai international Airport (DXB) in 2026",
    "code": "DXB",
    "continent": "Asia",
    "lat": 25.2528,
    "lon": 55.3644,
    "city": "Dubai",
    "country": "AE",
    "name": "Dubai International Airport",
    "image_url": "/img/poaps/dxb.png",
    "claims": 4
  },
  {
    "event_id": 216421,
    "title": "I passed through Rafael N\u00fa\u00f1ez International Airport (CTG) in 2026",
    "code": "CTG",
    "continent": "South America",
    "lat": 10.4424,
    "lon": -75.513,
    "city": "Cartagena",
    "country": "CO",
    "name": "Rafael Nunez International Airport",
    "image_url": "/img/poaps/ctg.png",
    "claims": 6
  },
  {
    "event_id": 218240,
    "title": "I passed through Juan Santamaria International Airport (SJO) in 2026",
    "code": "SJO",
    "continent": "North America",
    "lat": 9.99386,
    "lon": -84.2088,
    "city": "San Jose",
    "country": "CR",
    "name": "Juan Santamaria International Airport",
    "image_url": "/img/poaps/sjo.png",
    "claims": 0
  },
  {
    "event_id": 214879,
    "title": "I passed through Singapore Changi Airport (SIN) in 2026",
    "code": "SIN",
    "continent": "Asia",
    "lat": 1.35019,
    "lon": 103.994,
    "city": "Singapore",
    "country": "SG",
    "name": "Singapore Changi International Airport",
    "image_url": "/img/poaps/sin.png",
    "claims": 4
  },
  {
    "event_id": 214915,
    "title": "I passed through Santos Dumont Airport (SDU) in 2026",
    "code": "SDU",
    "continent": "South America",
    "lat": -22.9105,
    "lon": -43.1631,
    "city": "Rio De Janeiro",
    "country": "BR",
    "name": "Santos Dumont Airport",
    "image_url": "/img/poaps/sdu.png",
    "claims": 0
  },
  {
    "event_id": 216419,
    "title": "I passed through Detroit Metro Airport (DTW) in 2026",
    "code": "DTW",
    "continent": "North America",
    "lat": 42.21244,
    "lon": -83.35339,
    "city": "Detroit",
    "country": "US",
    "name": "Detroit Metro Wayne County Airport",
    "image_url": "/img/poaps/dtw.png",
    "claims": 0
  },
  {
    "event_id": 216412,
    "title": "I passed through A Coru\u00f1a Airport (LCG) in 2026",
    "code": "LCG",
    "continent": "Europe",
    "lat": 43.3021,
    "lon": -8.37726,
    "city": "Culleredo",
    "country": "ES",
    "name": "A Coruna Airport",
    "image_url": "/img/poaps/lcg.png",
    "claims": 0
  },
  {
    "event_id": 214869,
    "title": "I passed through Denver International Airport (DEN) in 2026",
    "code": "DEN",
    "continent": "North America",
    "lat": 39.86167,
    "lon": -104.67317,
    "city": "Denver",
    "country": "US",
    "name": "Denver International Airport",
    "image_url": "/img/poaps/den.png",
    "claims": 26
  },
  {
    "event_id": 214896,
    "title": "I passed through Dublin Airport (DUB) in 2026",
    "code": "DUB",
    "continent": "Europe",
    "lat": 53.4213,
    "lon": -6.27007,
    "city": "Dublin",
    "country": "IE",
    "name": "Dublin Airport",
    "image_url": "/img/poaps/dub.png",
    "claims": 0
  },
  {
    "event_id": 218239,
    "title": "I passed through Bari Karol Wojtyla Airport (BRI) in 2026",
    "code": "BRI",
    "continent": "Europe",
    "lat": 41.1389,
    "lon": 16.7606,
    "city": "Bari",
    "country": "IT",
    "name": "Bari / Palese International Airport",
    "image_url": "/img/poaps/bri.png",
    "claims": 0
  },
  {
    "event_id": 218237,
    "title": "I passed through Carrasco International Airport (MVD) in 2026",
    "code": "MVD",
    "continent": "South America",
    "lat": -34.8384,
    "lon": -56.0308,
    "city": "Montevideo",
    "country": "UY",
    "name": "Carrasco International /General C L Berisso Airport",
    "image_url": "/img/poaps/mvd.png",
    "claims": 2
  },
  {
    "event_id": 214936,
    "title": "I passed through Miami International Airport (MIA) in 2026",
    "code": "MIA",
    "continent": "North America",
    "lat": 25.79536,
    "lon": -80.29012,
    "city": "Miami",
    "country": "US",
    "name": "Miami International Airport",
    "image_url": "/img/poaps/mia.png",
    "claims": 7
  },
  {
    "event_id": 214913,
    "title": "I passed through Jose Maria Cordova International Airport (MDE) in 2026",
    "code": "MDE",
    "continent": "South America",
    "lat": 6.16454,
    "lon": -75.4231,
    "city": "Rionegro",
    "country": "CO",
    "name": "Jose Maria Cordova International Airport",
    "image_url": "/img/poaps/mde.png",
    "claims": 5
  },
  {
    "event_id": 218242,
    "title": "I passed through Naples International Airport (NAP) in 2026",
    "code": "NAP",
    "continent": "Europe",
    "lat": 40.886,
    "lon": 14.2908,
    "city": "Napoli",
    "country": "IT",
    "name": "Napoli / Capodichino International Airport",
    "image_url": "/img/poaps/nap.png",
    "claims": 0
  },
  {
    "event_id": 214917,
    "title": "I passed through Rio de Janeiro Galeao International Airport (GIG) in 2026",
    "code": "GIG",
    "continent": "South America",
    "lat": -22.81,
    "lon": -43.25056,
    "city": "Rio De Janeiro",
    "country": "BR",
    "name": "Galeao - Antonio Carlos Jobim International Airport",
    "image_url": "/img/poaps/gig.png",
    "claims": 1
  }
]